[
  {
    "listingId": "bayside-retreat",
    "listingName": "Bayside Retreat",
    "price": 186,
    "imgurl": "https://images.unsplash.com/photo-1560448204-e02f11c3d0e2?w=1200&q=80&auto=format&fit=crop",
    "bedrooms": 1,
    "bathrooms": 1,
    "guests": 4,
    "lat": 51.5145,
    "lng": -0.1293
  },
  {
    "listingId": "grand-avenue-loft",
    "listingName": "Grand Avenue Loft",
    "price": 205,
    "imgurl": "https://images.unsplash.com/photo-1542314831-068cd1dbfeeb?w=1200&q=80&auto=format&fit=crop",
    "bedrooms": 2,
    "bathrooms": 1,
    "guests": 5,
    "lat": 51.5079,
    "lng": -0.1281
  },
  {
    "listingId": "lakeside-villa",
    "listingName": "Lakeside Villa",
    "price": 264,
    "imgurl": "https://images.unsplash.com/photo-1600585154340-be6161a56a0c?w=1200&q=80&auto=format&fit=crop",
    "bedrooms": 3,
    "bathrooms": 2,
    "guests": 8,
    "lat": 51.5033,
    "lng": -0.1195
  },
  {
    "listingId": "stunning-2-bed-apartment-in-bow-the-flex-london",
    "listingName": "Stunning 2 Bed Apartment in Bow - The Flex London",
    "price": 190,
    "imgurl": "https://images.unsplash.com/photo-1484154218962-a197022b5858?w=1200&q=80&auto=format&fit=crop",
    "bedrooms": 2,
    "bathrooms": 1,
    "guests": 5,
    "lat": 51.5265,
    "lng": -0.0317
  },
  {
    "listingId": "contemporary-1-bed-apartment-in-central-victoria-the-flex-london",
    "listingName": "Contemporary 1 Bed Apartment in Central Victoria - The Flex London",
    "price": 264,
    "imgurl": "https://images.unsplash.com/photo-1542314831-068cd1dbfeeb?w=1200&q=80&auto=format&fit=crop",
    "bedrooms": 1,
    "bathrooms": 1,
    "guests": 4,
    "lat": 51.4958,
    "lng": -0.1436
  }
]
